{
   "html_attributions" : [],
   "next_page_token" : "CrQCIQEAABsUvumFnf-s0vBkvy_Rks4SYBbIRg3K-lTHwwWz3iYaXi0yOEC6CubJvtKg6ae0t4l0DujomB4b-hBvQjfJmTgXxpqhk4a-2zS0ukW0DAddaESl6N2pI2m4m3wcnJ_I-MGeMEWumEgIpKgPLVbL4UJdm4-4uXI62lBtgQKtTVkXFzgxUASaJj11zxAQ85QjeUHZGyE3PE7fo_l2w5Mv1s9uPJtl3vLDFPuBm6HdJ3JkJiPszDzvDBVg5m3yn4k7pBPFp-Gd5YzYHTbKr8KR-BicB06ifGW--E8ljCAEr9ST0eSyrl_sv56eOs4okgXvaUZQ2eNXp_GdLCEgLpJJrt684kHmS51kpfVfe1r8fqqFFssUXnEG2BqPWdSbDpyxW5wTUB1rB187phY2F8cWIekSECJErMN7kXISUbAm5c9qKygaFNpLPJSv5MGvYH7cVJTw1oM67h70",
   "results" : [
      {
         "geometry" : {
            "location" : {
               "lat" : 26.9293411,
               "lng" : 75.8036963
            },
            "viewport" : {
               "northeast" : {
                  "lat" : 26.93059892989272,
                  "lng" : 75.80496357989273
               },
               "southwest" : {
                  "lat" : 26.92789927010728,
                  "lng" : 75.80226392010728
               }
            }
         },
         "icon" : "https://maps.gstatic.com/mapfiles/place_api/icons/worship_islam-71.png",
         "id" : "952e90a07b6f1dcd087ec27e18946c65e8fdfabc",
         "name" : "Dargah Masjid (Mosque)",
         "photos" : [
            {
               "height" : 2368,
               "html_attributions" : [
                  "\u003ca href=\"https://maps.google.com/maps/contrib/116770536747370083470/photos\"\u003eshaikh yawar\u003c/a\u003e"
               ],
               "photo_reference" : "CmRaAAAAOEWoEMbvPCLik7lEXJsKw9lEDJosvEXRu-fiKgJ10IlbM9wHRvD3qNg-NxioTU0UybWF1ZHbOLa03T1SWUOvt5VPlX_c8lI48mm8piLgbmJ5p2yxQoBkMw1OpyV1dbhQEhDy36QJqd0a1F-BmgNIWo52GhS2oUYkHG7a3ddUiBDOs_Y3dPt4Zw",
               "width" : 4224
            }
         ],
         "place_id" : "ChIJ1_9Y4fyzbTkR4dHilf_Kweg",
         "rating" : 4,
         "reference" : "CmRbAAAAQRbnFgn2rmOqeKOZwLyDkKkbCJehTEGClwsHO9qOEB1KYGfKx9dnoK6Z1eQ_GzaSN4-TTS0JN7tHE_aN-0bG1JnHH2DAvsn5zhI3glnuzXRKOxcEFZoGLwwpswpO81iNEhCf2M4XO2T4rxkW_J8e0gc-GhRZX1vRssqwm52FkJr-dn0MLK9USw",
         "scope" : "GOOGLE",
         "types" : [ "mosque", "place_of_worship", "point_of_interest", "establishment" ],
         "vicinity" : "1155, Jhotwara Rd, Hazi Colony, Sindhi Camp, Jaipur"
      },
      {
         "geometry" : {
            "location" : {
               "lat" : 26.9454019,
               "lng" : 75.7500572
            },
            "viewport" : {
               "northeast" : {
                  "lat" : 26.94675172989272,
                  "lng" : 75.75140702989272
               },
               "southwest" : {
                  "lat" : 26.94405207010728,
                  "lng" : 75.74870737010728
               }
            }
         },
         "icon" : "https://maps.gstatic.com/mapfiles/place_api/icons/worship_islam-71.png",
         "id" : "2b92ca7b5aecce9babac06bc1395146e4d50e1c7",
         "name" : "Isha-et-islam Mosque",
         "place_id" : "ChIJwzN9Ng6zbTkRuORVl4g1j58",
         "rating" : 3.7,
         "reference" : "CmRbAAAAJNA09qaPQJ14c_xZFUEEavOUDXxIZ6xS4YXljck0SQZ5E4g-ohbU2ZFShpl0AAruPOMY9WoHrAnrY5yotBkPblQYPRFNIJp8ZaYciI4yGG5odoNdFwQtS8TO6b1-HOcSEhBMZIIyddVESs_tMyK24obrGhQ1JjbLbxtlFns9lpkgFlzp68Xh9Q",
         "scope" : "GOOGLE",
         "types" : [ "mosque", "place_of_worship", "point_of_interest", "establishment" ],
         "vicinity" : "139, Shilp Colony, Raghunath Nagar, Madina Colony, Jhotwara, Jaipur"
      },
      {
         "geometry" : {
            "location" : {
               "lat" : 26.9307541,
               "lng" : 75.8325334
            },
            "viewport" : {
               "northeast" : {
                  "lat" : 26.93217927989273,
                  "lng" : 75.83372927989272
               },
               "southwest" : {
                  "lat" : 26.92947962010728,
                  "lng" : 75.83102962010727
               }
            }
         },
         "icon" : "https://maps.gstatic.com/mapfiles/place_api/icons/worship_islam-71.png",
         "id" : "6864e6a613276036d44b0b7b79e45b60d87b10ae",
         "name" : "Shia Mosque",
         "place_id" : "ChIJmWN0UTaxbTkRoAah2Q2LbUU",
         "rating" : 3,
         "reference" : "CmRbAAAA6ZyI3R9pSrEKr1JsudXJfe1PMP65k04cvljqDXEZBemP2SATXpe2CukQSEcPikj_g0Hq4DtPE_eWolvdDPvC5G01JbF2NaGY5hZ_qZaKS1C41Br5uFjvKUjuqcnDHAvIEhCb8owL2s1yC68OwHlxeCd2GhSNvAyUOszevYZY7E5w7mS6SRs0nw",
         "scope" : "GOOGLE",
         "types" : [ "mosque", "place_of_worship", "point_of_interest", "establishment" ],
         "vicinity" : "271, Amer Rd, Char Darwaja, Chokdi Gangapol, Jaipur"
      },
      {
         "geometry" : {
            "location" : {
               "lat" : 26.9565415,
               "lng" : 75.8020695
            },
            "viewport" : {
               "northeast" : {
                  "lat" : 26.95790837989272,
                  "lng" : 75.80346597989272
               },
               "southwest" : {
                  "lat" : 26.95520872010728,
                  "lng" : 75.80076632010727
               }
            }
         },
         "icon" : "https://maps.gstatic.com/mapfiles/place_api/icons/worship_islam-71.png",
         "id" : "8d5c89df73927f0fcac42d173e88e71be7e2d14a",
         "name" : "Iqbal Mosque",
         "photos" : [
            {
               "height" : 4608,
               "html_attributions" : [
                  "\u003ca href=\"https://maps.google.com/maps/contrib/116397707775217891703/photos\"\u003eA Google User\u003c/a\u003e"
               ],
               "photo_reference" : "CmRaAAAApa8AKdlSgPx6Tq93159S_Jn48KZ42KKVvMMzL3IAhFyZIcBT090XE8ge6fTsMV-3krkW9jTkNYWRarR2UfqPOx7MMg1a-2EKLbVcvtivFNvO9omsxMmiGu3AF2nodUP1EhCD3gE9-pAS2U68RYrQueLzGhSKAlkv3WUChCd0yK5SmyzN27j_5w",
               "width" : 3456
            }
         ],
         "place_id" : "ChIJJ22ZJtezbTkRA28KkH6pS5M",
         "rating" : 3,
         "reference" : "CmRbAAAAWNmFVTcMgoPfOHb13WGeeu_qmsyyPCPx_d2sTxQEC2AnOxbR8pyxTCoDyUm3h_7BaellwEBZlncJHw0gh8CI6rjI2oCgs9_RsjfCZvxy55ysFcsLYvCYoVlX5tA9p51wEhDro9QSxrxZcoThWmtRhfk4GhQ1c0t38_3bb6L6Sq9e34HLftjEUQ",
         "scope" : "GOOGLE",
         "types" : [ "mosque", "place_of_worship", "point_of_interest", "establishment" ],
         "vicinity" : "Ram Nagar, Shastri Nagar, Jaipur"
      },
      {
         "geometry" : {
            "location" : {
               "lat" : 26.8432168,
               "lng" : 75.81780209999999
            },
            "viewport" : {
               "northeast" : {
                  "lat" : 26.84456662989273,
                  "lng" : 75.81915192989273
               },
               "southwest" : {
                  "lat" : 26.84186697010728,
                  "lng" : 75.81645227010728
               }
            }
         },
         "icon" : "https://maps.gstatic.com/mapfiles/place_api/icons/worship_islam-71.png",
         "id" : "d13913d019d035f5019700905362e25813f55a7e",
         "name" : "noorani masjid",
         "photos" : [
            {
               "height" : 2448,
               "html_attributions" : [
                  "\u003ca href=\"https://maps.google.com/maps/contrib/116066870354833137632/photos\"\u003eHumaid Alvi\u003c/a\u003e"
               ],
               "photo_reference" : "CmRaAAAAb-26i21eamqEvyXDu6w1zBv5UIzrByW3RaTjOFglH0Ne37uqVTFsQA73PwGh6dX61k_i6enuSpI1K_O8ZDtYLW9jbPVXOJ6MQtTbZcJycjzXaEZ5t9yU6yVFv5VudF9mEhAR_FjoAyHbt98rn6pRpiRiGhShyKGc3HaCx2MU_f3RuK7puGlG3w",
               "width" : 3264
            }
         ],
         "place_id" : "ChIJI4xCzQ-2bTkRAt37Arj4OHU",
         "rating" : 4.8,
         "reference" : "CmRbAAAAUajzfVPEvzxQa1Qr-T3SXgDUqq9B4N77-bbGHug43pPZVT8VZyySS_8nVETiOMX92BClkq07ZL3EidbHVj-O5EPjy7JIdJRwXIbUkTTfE8VV-vcnn2DPFuGqMN_6qt1sEhAt3qCi-oFn6YB9Dfe9SF-RGhT1HKg4Mu9BWKbkUPiil4q6EPdRlQ",
         "scope" : "GOOGLE",
         "types" : [ "mosque", "place_of_worship", "point_of_interest", "establishment" ],
         "vicinity" : "Nandpuri Colony, Jagatpura, Jaipur"
      },
      {
         "geometry" : {
            "location" : {
               "lat" : 26.9489606,
               "lng" : 75.75289170000001
            },
            "viewport" : {
               "northeast" : {
                  "lat" : 26.95031042989272,
                  "lng" : 75.75424152989272
               },
               "southwest" : {
                  "lat" : 26.94761077010728,
                  "lng" : 75.75154187010727
               }
            }
         },
         "icon" : "https://maps.gstatic.com/mapfiles/place_api/icons/worship_islam-71.png",
         "id" : "44ccf78bf9c85ee1cd5c410696f8531443b92ab3",
         "name" : "makka masjid fectory area jhotwara jaipur",
         "photos" : [
            {
               "height" : 1456,
               "html_attributions" : [
                  "\u003ca href=\"https://maps.google.com/maps/contrib/109993553338387175799/photos\"\u003eFaseeh Ahmed\u003c/a\u003e"
               ],
               "photo_reference" : "CmRaAAAAX4gzG8Q9oZMr-zG1lxYZAVPoWjaB-ju8RTZMAcx9Oan39TkZEzcZEuh7l5sHbos7nBpedODBbICkBoMzcoMLKAuhl0BYLx8YKfXL1WVQ0e5b0QPzMcdtJxYQ5PxsKoYoEhBsAFDW8TDB6EINBAzkMEziGhTU99TSDAwsKdNvX2ZJUWGaj7qLAA",
               "width" : 2592
            }
         ],
         "place_id" : "ChIJPTjZYQ-zbTkRrH3s9Ff2Noc",
         "rating" : 4.3,
         "reference" : "CmRbAAAAnLpdB2WzRjxSI9gtOZsl4CkcusPVyrEjRn-EqLN9IQVpGBIho_rUSNMQQyAAgdEjQuSiA5oQi98gVLkkYFCdRJ5ww4Qq7o-I4IwghkOENhTJ89b-gXFM0UgrLceRrQt2EhA2_73hLtLZRRNbxZ1xgfzrGhRGbEYu8zbhMXjJyuMl8SesqfRlpA",
         "scope" : "GOOGLE",
         "types" : [ "mosque", "place_of_worship", "point_of_interest", "establishment" ],
         "vicinity" : "makka colony fectory area jhotwara jaipur rajasthan, makka colony, Bismilla Colony, Shivaji Nagar, Jhotwara, Jaipur"
      },
      {
         "geometry" : {
            "location" : {
               "lat" : 26.9889656,
               "lng" : 75.85618339999999
            },
            "viewport" : {
               "northeast" : {
                  "lat" : 26.99010992989272,
                  "lng" : 75.85751737989273
               },
               "southwest" : {
                  "lat" : 26.98741027010728,
                  "lng" : 75.85481772010728
               }
            }
         },
         "icon" : "https://maps.gstatic.com/mapfiles/place_api/icons/worship_islam-71.png",
         "id" : "d8f43ccd85b437fdee386f40892370b2de96db2f",
         "name" : "Akbari Mosque",
         "opening_hours" : {
            "open_now" : true,
            "weekday_text" : []
         },
         "photos" : [
            {
               "height" : 3456,
               "html_attributions" : [
                  "\u003ca href=\"https://maps.google.com/maps/contrib/101828180510644162225/photos\"\u003e邱垂進\u003c/a\u003e"
               ],
               "photo_reference" : "CmRaAAAATs3rE09_cMxISfYUJ6LzsGLcaf04lx4pWzx8KxCiJk38lAQFF6mIXzqP3C0bK3c1KlGY-OT01uFt-m684GaJ0vtaRqHPgev-yk8bhmhdemKjL_frjrHOefy5q-upvw53EhDhdR06_s9aS-rgvDzspmrpGhRYvKT2cGSAWURBXKDphToufnHFUQ",
               "width" : 5184
            }
         ],
         "place_id" : "ChIJyyVHeEuwbTkRcq3wFdxTVoM",
         "rating" : 4.6,
         "reference" : "CmRbAAAAaBmVaK0CzlKQxVKoLHOh00cKCvenRfVPrAzzg-t3QlCVl-5vdvl310gGThKRtFhGigD2uffEPRLldpC5gidruJjyElaXJS0fs_HLuW6TV8OdtcbJuI8iXs0OhIn789udEhD65zFs9qlk_cFfODhpP1ViGhSmHPOlm_aqdQE57P4E-vv_bpG5FA",
         "scope" : "GOOGLE",
         "types" : [ "mosque", "place_of_worship", "point_of_interest", "establishment" ],
         "vicinity" : "Amer Rd, Gandhi Chowk, Devisinghpura, Amer"
      },
      {
         "geometry" : {
            "location" : {
               "lat" : 26.8345333,
               "lng" : 75.82396
            },
            "viewport" : {
               "northeast" : {
                  "lat" : 26.83565147989272,
                  "lng" : 75.82548607989271
               },
               "southwest" : {
                  "lat" : 26.83295182010728,
                  "lng" : 75.82278642010726
               }
            }
         },
         "icon" : "https://maps.gstatic.com/mapfiles/place_api/icons/worship_islam-71.png",
         "id" : "48f1781dcaaf4b2ab20ad635f0bf4a7af84e8976",
         "name" : "Masjid Garib Nawaz",
         "place_id" : "ChIJP6WoBBy2bTkR2WHsiYVbsnQ",
         "rating" : 4,
         "reference" : "CmRbAAAAuEJg5MxiTw9MLuka0CGhZzSxCpSjYaNN3-w4DU9dVkx87w75DmVB7DK9S-UgTre6gC2xDfqG2Oep_xndOMTCnPcHZoT4yXflGgZR0kFdgMsO1LSUlf1brFTY7bDtoyFUEhClFZ6lqcaUUMBv5_WIYDh_GhSlhFmRuMViutIcQ5BxLZOPIxELPg",
         "scope" : "GOOGLE",
         "types" : [ "mosque", "place_of_worship", "point_of_interest", "establishment" ],
         "vicinity" : "Jagatpura Rd, Mayapuri, Jagatpura, Jaipur"
      },
      {
         "geometry" : {
            "location" : {
               "lat" : 26.95082,
               "lng" : 75.8052043
            },
            "viewport" : {
               "northeast" : {
                  "lat" : 26.95219257989272,
                  "lng" : 75.80659697989273
               },
               "southwest" : {
                  "lat" : 26.94949292010728,
                  "lng" : 75.8038973201073
               }
            }
         },
         "icon" : "https://maps.gstatic.com/mapfiles/place_api/icons/worship_islam-71.png",
         "id" : "ba1ae2cc3d9bc7b0288e1f2be15eab0531d1ae93",
         "name" : "AAYESHA MASJID",
         "opening_hours" : {
            "open_now" : true,
            "weekday_text" : []
         },
         "photos" : [
            {
               "height" : 2448,
               "html_attributions" : [
                  "\u003ca href=\"https://maps.google.com/maps/contrib/117573449278111214865/photos\"\u003eShakir Khan\u003c/a\u003e"
               ],
               "photo_reference" : "CmRaAAAAfceqwRGejmEX24prGSbsRkjyFeYPXbojLix0cmHZReqotm4P1hjhtHgPG-WbS9lb8uLNiPqWo_TCIUczYndrCvddtPnkG_8VBx-QQBOzklPQresVIAMCMSoa45fplOmFEhC5QEbUXVYaKzzmRFH5nAx-GhQAy63x9nUYAhHGUA9k-A0bXpTX4g",
               "width" : 3264
            }
         ],
         "place_id" : "ChIJVeY08tizbTkR3fuTPbSaAZs",
         "rating" : 4.6,
         "reference" : "CmRbAAAAO9VuUiCZ7spIO50lZKZlMUR9MAotxAgopDaQqFTCtCE3Zt3rToxKUYbdICFI3LCM7sXNRnskK3I-0NIj1vjojx4TiN4_5qIiQ1HbMUjm7rlSFxqUv8xR49jEMTvZOOBvEhCqAQTfTwQX4kt2M83m-RFlGhRF6gNiaVpAeoadF9q3TnmHc2yobg",
         "scope" : "GOOGLE",
         "types" : [ "mosque", "place_of_worship", "point_of_interest", "establishment" ],
         "vicinity" : "Ram Nagar, Shastri Nagar, Jaipur"
      },
      {
         "geometry" : {
            "location" : {
               "lat" : 26.9182097,
               "lng" : 75.84232860000002
            },
            "viewport" : {
               "northeast" : {
                  "lat" : 26.91955952989272,
                  "lng" : 75.84367842989273
               },
               "southwest" : {
                  "lat" : 26.91685987010728,
                  "lng" : 75.84097877010728
               }
            }
         },
         "icon" : "https://maps.gstatic.com/mapfiles/place_api/icons/worship_islam-71.png",
         "id" : "eb171da58df1130370fa836c457d42d8acc812da",
         "name" : "Mohammadi Masjid",
         "place_id" : "ChIJw8_8DdK2bTkRkk7EE5MZqwk",
         "rating" : 4.5,
         "reference" : "CmRbAAAALLCu4_SqI26cBCWXbOwprT3Yr78g7uMJPpEfBJKi-DLbDTlUAjto8GoIvELXB_uRlqy5lTWBTu5vezqL7Hhz_21xAKQ2L-9U8vGfQ0KM3XG2y7tqkWwnAUwcGCHy1XUDEhDgKeoe9MLBrExN5Yo4MGSuGhTYudtogF6IMDbIUbxyIdh4kW4VNQ",
         "scope" : "GOOGLE",
         "types" : [ "mosque", "place_of_worship", "point_of_interest", "establishment" ],
         "vicinity" : "Surajpol Bazar Rd, Pink City, Jaipur"
      },
      {
         "geometry" : {
            "location" : {
               "lat" : 26.873567,
               "lng" : 75.69922760000001
            },
            "viewport" : {
               "northeast" : {
                  "lat" : 26.87491682989272,
                  "lng" : 75.70057742989273
               },
               "southwest" : {
                  "lat" : 26.87221717010728,
                  "lng" : 75.69787777010728
               }
            }
         },
         "icon" : "https://maps.gstatic.com/mapfiles/place_api/icons/worship_islam-71.png",
         "id" : "eddb86bad8ccd3506b494cc13ac23170c6de3f59",
         "name" : "Bhankrota Masjid",
         "place_id" : "ChIJE8Qk2CRLbDkRJUhIHABrpHk",
         "rating" : 4,
         "reference" : "CmRbAAAAURMPUCVfFX1o4RMkO_yY7S1JK84bjyzp_4JFN9gsgTBOs_iG5th47NF8Ipaq934shaPwQStL3lyuFkvsUhCR5Nz0XCfkZfCkl00eAO51JHAipTu6qVEWrpPom38gjhjUEhD9ZANl3qU4r0syGkCHweMuGhSl5ilwEnOx3kPZWYPQW4wSmbBPsQ",
         "scope" : "GOOGLE",
         "types" : [ "mosque", "place_of_worship", "point_of_interest", "establishment" ],
         "vicinity" : "Bhakrota, Jaipur"
      },
      {
         "geometry" : {
            "location" : {
               "lat" : 26.9124995,
               "lng" : 75.8349376
            },
            "viewport" : {
               "northeast" : {
                  "lat" : 26.91380657989272,
                  "lng" : 75.83624057989273
               },
               "southwest" : {
                  "lat" : 26.91110692010728,
                  "lng" : 75.83354092010728
               }
            }
         },
         "icon" : "https://maps.gstatic.com/mapfiles/place_api/icons/worship_islam-71.png",
         "id" : "d8256c4c9355fa5a4f5dccaf409e9803d8c55a48",
         "name" : "Risalah Masjid",
         "opening_hours" : {
            "open_now" : true,
            "weekday_text" : []
         },
         "place_id" : "ChIJ7xUkuci2bTkRahcu73sUG3w",
         "rating" : 5,
         "reference" : "CmRbAAAA9HzvB1sMslQ6_k_9Z8F8Ib5De1s9Is3tHTfYe9ra0Swi94zn98Cv6jNOlWuoRNYQCx9muth_2SkmA77U_wfMsToGrHEkxi89xPl3iyIu1QgusRD1dyPWijDZLRfSMANqEhBXgT_nzA0uFRaWIrtuSPLzGhThMA8n-IcRipCl8VwOu6jj6L99vQ",
         "scope" : "GOOGLE",
         "types" : [ "mosque", "place_of_worship", "point_of_interest", "establishment" ],
         "vicinity" : "Near Ankur Cinema, Agra Rd, Jaipur"
      },
      {
         "geometry" : {
            "location" : {
               "lat" : 26.933197,
               "lng" : 75.840231
            },
            "viewport" : {
               "northeast" : {
                  "lat" : 26.93454682989272,
                  "lng" : 75.84158082989272
               },
               "southwest" : {
                  "lat" : 26.93184717010728,
                  "lng" : 75.83888117010727
               }
            }
         },
         "icon" : "https://maps.gstatic.com/mapfiles/place_api/icons/worship_islam-71.png",
         "id" : "5a943918b1b0779bf0c51b3e79d22515ae00bb65",
         "name" : "Masjid-e-Muhammadi",
         "opening_hours" : {
            "open_now" : true,
            "weekday_text" : []
         },
         "place_id" : "ChIJAbXyQDCxbTkRb4kdHNaFu1c",
         "rating" : 3.2,
         "reference" : "CmRbAAAAdulxTRtOajaS9dHQmwAEGJuobn6xSv70KBrrM9bltbP24OWDJGFIsMlCs17iqIN5yx-_Bd7yHcMAoyyWY-zDmAwdbr7Ivc0l_-bZQxii55gmwV8_PWAeAygk_p8rzUS5EhBB8VDOPIJxft0TiT-6_UQLGhTgHRsYVbevKLRGMhi996SIJAPqvg",
         "scope" : "GOOGLE",
         "types" : [ "mosque", "place_of_worship", "point_of_interest", "establishment" ],
         "vicinity" : "1B, Khandelwal Colony, Bas Badanpura, Jaipur"
      },
      {
         "geometry" : {
            "location" : {
               "lat" : 26.9476001,
               "lng" : 75.85211819999999
            },
            "viewport" : {
               "northeast" : {
                  "lat" : 26.94894992989272,
                  "lng" : 75.85346802989271
               },
               "southwest" : {
                  "lat" : 26.94625027010728,
                  "lng" : 75.85076837010726
               }
            }
         },
         "icon" : "https://maps.gstatic.com/mapfiles/place_api/icons/worship_islam-71.png",
         "id" : "855def67131e1ed6bbd455d9d1ddf751f89b2d33",
         "name" : "Masjid A Modiyan",
         "place_id" : "ChIJh79_9R-xbTkRkgSjTszlv74",
         "reference" : "CmRbAAAA715m-hLz4V78Lk29LCdNG0jsQTCZsn36MVxLYeEyf6IVdvaK2zRABJOZ4_3wkjeXoXgL6qDMAlHhoeD5NOq02wbk9QFGptr4od6wmEeJSQ_xHlgfJBxEeOdgDN9mzyiiEhCdneIovzf11IsCYMKceTdXGhRd-l1dfYp-0vpbELyd8_4_CMn8UQ",
         "scope" : "GOOGLE",
         "types" : [ "mosque", "place_of_worship", "point_of_interest", "establishment" ],
         "vicinity" : "Baldeogarh,, 53, Nh 8 Bypass Rd, Baldeogarh, Jaipur"
      },
      {
         "geometry" : {
            "location" : {
               "lat" : 26.9216669,
               "lng" : 75.831943
            },
            "viewport" : {
               "northeast" : {
                  "lat" : 26.92306397989272,
                  "lng" : 75.83330577989273
               },
               "southwest" : {
                  "lat" : 26.92036432010728,
                  "lng" : 75.83060612010728
               }
            }
         },
         "icon" : "https://maps.gstatic.com/mapfiles/place_api/icons/worship_islam-71.png",
         "id" : "c8d158dd1d4cd1ce2a7b42b84f4da4c7e9bad5e2",
         "name" : "Chhoti Rehmani Masjid",
         "photos" : [
            {
               "height" : 510,
               "html_attributions" : [
                  "\u003ca href=\"https://maps.google.com/maps/contrib/113481611637531079388/photos\"\u003eMohammad Akram\u003c/a\u003e"
               ],
               "photo_reference" : "CmRaAAAACkXVGSHq5_hO6rKmo_XK6Vhuu_ISTTNx6ARUNEdilQjYOkUJzfdhUypoFomi-Za_u1dWiIGh3N0ZNHnBs0kdLA92dNBUbYj_snKOlh_pm6VPGuoD1JrWrD7cwyJTcJLVEhD4T40ZrYDHFbE4LNoeqT3ZGhQHmA4nZ1MLO9GR-nUkHniTAnwkfA",
               "width" : 680
            }
         ],
         "place_id" : "ChIJtXZzxsq2bTkRA-x9uff73SU",
         "rating" : 5,
         "reference" : "CmRbAAAAZyH8S_GaEMXobmd76_F3G3Vw9SPpyKAw9diCzEdJW9zE6jQT_sLNvgD5JHfW5pU85tlS-9UCXyBeOofj6MLDFTgvMb7hxpalUOvz_uIt2xWUeAdbkUsZYGgcC7lTYjYFEhDEVy3pENwJOy-isjeShWMwGhTMC0H-K0Onw2VsQN3vlQM4ulN5jw",
         "scope" : "GOOGLE",
         "types" : [ "mosque", "place_of_worship", "point_of_interest", "establishment" ],
         "vicinity" : "Ramganj Bazar Rd, Ramganj Bazar, Jaipur"
      },
      {
         "geometry" : {
            "location" : {
               "lat" : 26.9264057,
               "lng" : 75.81242859999999
            },
            "viewport" : {
               "northeast" : {
                  "lat" : 26.92782387989272,
                  "lng" : 75.81348257989272
               },
               "southwest" : {
                  "lat" : 26.92512422010728,
                  "lng" : 75.81078292010727
               }
            }
         },
         "icon" : "https://maps.gstatic.com/mapfiles/place_api/icons/worship_islam-71.png",
         "id" : "e4ee9f960a9bd388dd3b44d4406cd78d704ea0b6",
         "name" : "Masjid a Jarahan",
         "place_id" : "ChIJEyc3qlaxbTkRJD3tCqF1Gtc",
         "reference" : "CmRbAAAAIvTPiuhvXCXaLuGmGunuhXViDHvwEN-op21wymwRl4N7jK05tNcmy_Vp6x_lMW66OXErD3DOUXvZMJyUoWgqRmkp4LldBcEqCM4G0hNDN-reQIYqBXUYl56C2TVfN8JwEhBSSy6ktBipCiozkfZs9PlaGhTO3pyLXldNh1a-zcqhSYO7BoNDIA",
         "scope" : "GOOGLE",
         "types" : [ "mosque", "place_of_worship", "point_of_interest", "establishment" ],
         "vicinity" : "786 kasaio ki gali bagru walon ka rasta chandpol bazar jaipur, Bagru Walo Ka Rasta, Pink City, Jaipur"
      },
      {
         "geometry" : {
            "location" : {
               "lat" : 26.875167,
               "lng" : 75.8786855
            },
            "viewport" : {
               "northeast" : {
                  "lat" : 26.87651682989272,
                  "lng" : 75.88003532989273
               },
               "southwest" : {
                  "lat" : 26.87381717010728,
                  "lng" : 75.87733567010729
               }
            }
         },
         "icon" : "https://maps.gstatic.com/mapfiles/place_api/icons/worship_islam-71.png",
         "id" : "be36e0adbaf9c97659128c71724d4953bb4763a6",
         "name" : "Madina Masjid, Dwarka Puri, Goner Road, ghati Karolan, Jaipur",
         "place_id" : "ChIJV1mmzZi3bTkRnI89X3Yf85w",
         "rating" : 5,
         "reference" : "CmRbAAAA1qSh-H_C-1uvpnTRO0UA97NFtX2kE8VOk0uf2bQhND9CDQrZS1qpfOu_LhZChW7omnSwDMh-B8bO50l6QoQAhoMSXtYIlQJDx2R8RRznWFugm31zBNZj0xzlcno2OdCxEhAz6bHO1dgkMiIw9F4USzfCGhSU5l_RjO1BcEiU_xMYQ_w5ihvGqA",
         "scope" : "GOOGLE",
         "types" : [ "mosque", "place_of_worship", "point_of_interest", "establishment" ],
         "vicinity" : "52, Ghati Karolan, Jaipur"
      },
      {
         "geometry" : {
            "location" : {
               "lat" : 26.9148569,
               "lng" : 75.78070339999999
            },
            "viewport" : {
               "northeast" : {
                  "lat" : 26.91620672989272,
                  "lng" : 75.78205322989271
               },
               "southwest" : {
                  "lat" : 26.91350707010728,
                  "lng" : 75.77935357010728
               }
            }
         },
         "icon" : "https://maps.gstatic.com/mapfiles/place_api/icons/worship_islam-71.png",
         "id" : "016fba0ac454a25599426793016c9179e12a259c",
         "name" : "MASZID E RAIYAN",
         "photos" : [
            {
               "height" : 3264,
               "html_attributions" : [
                  "\u003ca href=\"https://maps.google.com/maps/contrib/117291668965798208453/photos\"\u003eAamir Khan\u003c/a\u003e"
               ],
               "photo_reference" : "CmRaAAAA67HMsTVXaPTqm2nIvlwqIPKDOEndGTWq_irj-rD-hwFlvS3rRirk-XgUOKCVW11LiUyRQNzPHUrVDKJF4RXCJ_FclWhWwJdLVEDu45bwVNsXYnrghkXgJN9GfMvJyGBHEhAwLj1XuIAEPNIt48O5ngzZGhQUgS5VR8iXEvqkkbNmwDcq2GUVeA",
               "width" : 2448
            }
         ],
         "place_id" : "ChIJ19vEqXW0bTkRA8fuTDYPCpU",
         "rating" : 4.9,
         "reference" : "CmRbAAAAI-A4CBhGwHgrdJVjiL5LzhP5ItKojK6Ee_uD0aXEQuJCEOLglTfme4uqS1SFD5bnm3mjufdrhnM81MzMKpk9bXUGUaoXKqG0OFCtPcbkDAuL3_0bnPw2d1qJR-dJ4YSfEhB0ottymdclnU1S5DOOwWJXGhS__aJV2LTwEXfln6C4xrNCz_LSGA",
         "scope" : "GOOGLE",
         "types" : [ "mosque", "place_of_worship", "point_of_interest", "establishment" ],
         "vicinity" : "Kamala Nehru Nagar, Rai Colony, Ganpati Nagar, Jaipur"
      },
      {
         "geometry" : {
            "location" : {
               "lat" : 26.907739,
               "lng" : 75.8230904
            },
            "viewport" : {
               "northeast" : {
                  "lat" : 26.90910587989272,
                  "lng" : 75.82439687989273
               },
               "southwest" : {
                  "lat" : 26.90640622010728,
                  "lng" : 75.82169722010728
               }
            }
         },
         "icon" : "https://maps.gstatic.com/mapfiles/place_api/icons/worship_islam-71.png",
         "id" : "15acbb2aa24337a0433027d09102e8c665065fd3",
         "name" : "Choti Masjid Kharbuuza Mandi",
         "place_id" : "ChIJ8UwBN7q2bTkRStc0tG9G9TM",
         "reference" : "CmRbAAAADkY9lLZDnwBmPMdpvn0Hx7YiFTI4M8ekCjYz9fnmhli8KigqXF4FFZutopgHhC5c8HVgNv_GC-p60a-Ti2vSK7HTqNlWZNQ5anNvl_JbYFHd7kW_oZoSlrySbHDjXUlnEhBHfUC_GVBPTCctKVgbzcRuGhTv0s6_V3eJVOpaxrQ0KA20blTcqQ",
         "scope" : "GOOGLE",
         "types" : [ "mosque", "place_of_worship", "point_of_interest", "establishment" ],
         "vicinity" : "A-2,, A-2, Moti Doongri Rd, Dhadho Ka Bagh, Fateh Tibba, Adarsh Nagar, Jaipur"
      },
      {
         "geometry" : {
            "location" : {
               "lat" : 26.9101787,
               "lng" : 75.821996
            },
            "viewport" : {
               "northeast" : {
                  "lat" : 26.91152852989272,
                  "lng" : 75.82334582989272
               },
               "southwest" : {
                  "lat" : 26.90882887010728,
                  "lng" : 75.82064617010727
               }
            }
         },
         "icon" : "https://maps.gstatic.com/mapfiles/place_api/icons/worship_islam-71.png",
         "id" : "ebec05c6415be36b425a1009e8c084d08cf14772",
         "name" : "Masjid Jinnatan",
         "place_id" : "ChIJC_IIg7C2bTkRmeUwiBFgMTE",
         "reference" : "CmRbAAAAJAYBm3Uu71hOF6YR-erMtAfXgpNgH2CDhpdCGF4jrhrJNW-SlCcjRaVDfOwLtjKRhe-EkmreE_M8fhPbDWXamuF3B_GzrxxhMceiXJMfxdOK1T7aJtKaz14VO5ytLyHNEhADcdZciBON-uOON6ZCEzz-GhRhtI6FvROiE74FFd9bQ8l0JailzQ",
         "scope" : "GOOGLE",
         "types" : [ "mosque", "place_of_worship", "point_of_interest", "establishment" ],
         "vicinity" : "180, Bardia Colony, Kailash Puri, Adarsh Nagar, Jaipur"
      }
   ],
   "status" : "OK"
}
